{
"type": "FeatureCollection",
"name": "Independent_Schools",
"crs": { "type": "name", "properties": { "name": "urn:ogc:def:crs:OGC:1.3:CRS84" } },
"features": [
{ "type": "Feature", "properties": { "OBJECTID": 1, "ID": 29, "NAME": "Lowell School", "ADDRESS": "1640 KALMIA ROAD NW", "TELEPHONE": "202-577-2000", "WEB_URL": "https://www.lowellschool.org", "GIS_ID": "IndSchPt_39", "MAR_ID": 302442, "XCOORD": 396672.58, "YCOORD": 146320.89, "LATITUDE": 38.98481235, "LONGITUDE": -77.0384048, "ZIPCODE": "20012", "CREATOR": null, "CREATED": null, "EDITOR": null, "EDITED": null }, "geometry": { "type": "Point", "coordinates": [ -77.038385240521677, 38.984795865393501 ] } },
{ "type": "Feature", "properties": { "OBJECTID": 2, "ID": 14, "NAME": "Blessed Sacrament School", "ADDRESS": "5841 CHEVY CHASE PARKWAY NW", "TELEPHONE": "202-966-6682", "WEB_URL": "https://www.bsstoday.org", "GIS_ID": "IndSchPt_31", "MAR_ID": 274472, "XCOORD": 393460.12, "YCOORD": 144442.79, "LATITUDE": 38.96787595, "LONGITUDE": -77.07546481, "ZIPCODE": "20015", "CREATOR": null, "CREATED": null, "EDITOR": null, "EDITED": null }, "geometry": { "type": "Point", "coordinates": [ -77.075137833037843, 38.967908240790734 ] } },
{ "type": "Feature", "properties": { "OBJECTID": 3, "ID": 40, "NAME": "Roots Activity Learning Center", "ADDRESS": "6222 NORTH CAPITOL STREET NW", "TELEPHONE": "202-882-5155", "WEB_URL": "https://www.rootsactivitylc.org/", "GIS_ID": "IndSchPt_21", "MAR_ID": 277484, "XCOORD": 399182.01, "YCOORD": 144257.74, "LATITUDE": 38.96623295, "LONGITUDE": -77.00943871, "ZIPCODE": "20011", "CREATOR": null, "CREATED": null, "EDITOR": null, "EDITED": null }, "geometry": { "type": "Point", "coordinates": [ -77.009437177440759, 38.966211209929035 ] } },
{ "type": "Feature", "properties": { "OBJECTID": 4, "ID": 15, "NAME": "Bridges Academy", "ADDRESS": "6119 GEORGIA AVENUE NW", "TELEPHONE": "202-829-1901", "WEB_URL": "https://www.bridgesacademydc.org/", "GIS_ID": "IndSchPt_1", "MAR_ID": 295158, "XCOORD": 397619.12, "YCOORD": 144051.91, "LATITUDE": 38.96437593, "LONGITUDE": -77.02747204000001, "ZIPCODE": "20011", "CREATOR": null, "CREATED": null, "EDITOR": null, "EDITED": null }, "geometry": { "type": "Point", "coordinates": [ -77.027422627470671, 38.964382411765769 ] } },
{ "type": "Feature", "properties": { "OBJECTID": 5, "ID": 4, "NAME": "Milton Gottesman Jewish Day School North Campus", "ADDRESS": "6045 16TH STREET NW", "TELEPHONE": "202-291-5737", "WEB_URL": "https://www.jpds.org/", "GIS_ID": "IndSchPt_47", "MAR_ID": 256159, "XCOORD": 396883.1, "YCOORD": 144017.12, "LATITUDE": 38.96406023, "LONGITUDE": -77.03596452, "ZIPCODE": "20011", "CREATOR": null, "CREATED": null, "EDITOR": null, "EDITED": null }, "geometry": { "type": "Point", "coordinates": [ -77.035945511955006, 38.964073245132226 ] } },
{ "type": "Feature", "properties": { "OBJECTID": 6, "ID": 46, "NAME": "St. John's College High School", "ADDRESS": "2607 MILITARY ROAD NW", "TELEPHONE": "202-363-2316", "WEB_URL": "https://www.stjohns-chs.org", "GIS_ID": "IndSchPt_25", "MAR_ID": 259840, "XCOORD": 395215.5, "YCOORD": 143835.6, "LATITUDE": 38.96241755, "LONGITUDE": -77.05520495, "ZIPCODE": "20015", "CREATOR": null, "CREATED": null, "EDITOR": null, "EDITED": null }, "geometry": { "type": "Point", "coordinates": [ -77.054971646400205, 38.96247985481358 ] } },
{ "type": "Feature", "properties": { "OBJECTID": 7, "ID": 27, "NAME": "Kingsbury Day School", "ADDRESS": "5000 14TH STREET NW", "TELEPHONE": "202-722-5555", "WEB_URL": "https://www.kingsbury.org/ ", "GIS_ID": "IndSchPt_4", "MAR_ID": 255780, "XCOORD": 397047.31, "YCOORD": 142564.4, "LATITUDE": 38.95097432, "LONGITUDE": -77.03406352, "ZIPCODE": "20008", "CREATOR": null, "CREATED": null, "EDITOR": null, "EDITED": null }, "geometry": { "type": "Point", "coordinates": [ -77.034091099942486, 38.95099174799261 ] } },
{ "type": "Feature", "properties": { "OBJECTID": 8, "ID": 38, "NAME": "Parkmont School", "ADDRESS": "4842 16TH STREET NW", "TELEPHONE": "202-726-0740", "WEB_URL": "https://www.parkmont.org", "GIS_ID": "IndSchPt_7", "MAR_ID": 258748, "XCOORD": 396811.4, "YCOORD": 142452.94, "LATITUDE": 38.94996943, "LONGITUDE": -77.03678456, "ZIPCODE": "20011", "CREATOR": null, "CREATED": null, "EDITOR": null, "EDITED": null }, "geometry": { "type": "Point", "coordinates": [ -77.036769946800959, 38.949993395631445 ] } },
{ "type": "Feature", "properties": { "OBJECTID": 9, "ID": 39, "NAME": "St. Columbia's Epicopal Church Nursery School", "ADDRESS": "4201 ALBEMARLE STREET NW", "TELEPHONE": "202-363-4119", "WEB_URL": "https://www.columba.org/learn-grow/nursery-school", "GIS_ID": "IndSchPt_54", "MAR_ID": 301545, "XCOORD": 392853.08, "YCOORD": 142261.1, "LATITUDE": 38.948218, "LONGITUDE": -77.082447, "ZIPCODE": "20016", "CREATOR": null, "CREATED": null, "EDITOR": null, "EDITED": null }, "geometry": { "type": "Point", "coordinates": [ -77.082449124348443, 38.948225460635868 ] } },
{ "type": "Feature", "properties": { "OBJECTID": 10, "ID": 8, "NAME": "Milton Gottesman Jewish Day School South Campus", "ADDRESS": "4715 16TH STREET NW", "TELEPHONE": "202-291-5737", "WEB_URL": "https://www.jpds.org/", "GIS_ID": "IndSchPt_48", "MAR_ID": 255699, "XCOORD": 396875.21, "YCOORD": 142239.02, "LATITUDE": 38.94804261, "LONGITUDE": -77.03604746000001, "ZIPCODE": "20011", "CREATOR": null, "CREATED": null, "EDITOR": null, "EDITED": null }, "geometry": { "type": "Point", "coordinates": [ -77.036028453469569, 38.948055621485906 ] } },
{ "type": "Feature", "properties": { "OBJECTID": 11, "ID": 49, "NAME": "Sheridan School", "ADDRESS": "4400 36TH STREET NW", "TELEPHONE": "202-362-7900", "WEB_URL": "https://www.sheridanschool.org", "GIS_ID": "IndSchPt_8", "MAR_ID": 221854, "XCOORD": 393887.11, "YCOORD": 142101.06, "LATITUDE": 38.94678412, "LONGITUDE": -77.07051683, "ZIPCODE": "20008", "CREATOR": null, "CREATED": null, "EDITOR": null, "EDITED": null }, "geometry": { "type": "Point", "coordinates": [ -77.0705223964044, 38.946773922161405 ] } },
{ "type": "Feature", "properties": { "OBJECTID": 12, "ID": 6, "NAME": "St. Anselm's Abbey School", "ADDRESS": "4501 SOUTH DAKOTA AVENUE NE", "TELEPHONE": "202-269-2350", "WEB_URL": "https://www.saintanselms.org/ ", "GIS_ID": "IndSchPt_14", "MAR_ID": 288238, "XCOORD": 401339.81, "YCOORD": 142177.91, "LATITUDE": 38.94749665, "LONGITUDE": -76.98454412, "ZIPCODE": "20017", "CREATOR": null, "CREATED": null, "EDITOR": null, "EDITED": null }, "geometry": { "type": "Point", "coordinates": [ -76.984781111389225, 38.94577541307703 ] } },
{ "type": "Feature", "properties": { "OBJECTID": 13, "ID": 32, "NAME": "National Presbyterian School", "ADDRESS": "4121 NEBRASKA AVENUE NW", "TELEPHONE": "202-537-7500", "WEB_URL": "https://www.nps-dc.org", "GIS_ID": "IndSchPt_41", "MAR_ID": 301072, "XCOORD": 392930.02, "YCOORD": 141515.57, "LATITUDE": 38.94150268, "LONGITUDE": -77.08155155, "ZIPCODE": "20016", "CREATOR": null, "CREATED": null, "EDITOR": null, "EDITED": null }, "geometry": { "type": "Point", "coordinates": [ -77.080979752150171, 38.941779426854474 ] } },
{ "type": "Feature", "properties": { "OBJECTID": 14, "ID": 26, "NAME": "Fusion Academy", "ADDRESS": "3007 TILDEN STREET NW", "TELEPHONE": "202-244-0639", "WEB_URL": "https://www.fusionacademy.com/fusion-campus-location/washington-dc/welcome", "GIS_ID": "IndSchPt_51", "MAR_ID": 294550, "XCOORD": 394470.3, "YCOORD": 141484.9, "LATITUDE": 38.94123744, "LONGITUDE": -77.06378433, "ZIPCODE": "20008", "CREATOR": null, "CREATED": null, "EDITOR": null, "EDITED": null }, "geometry": { "type": "Point", "coordinates": [ -77.063786631605353, 38.941244900671961 ] } },
{ "type": "Feature", "properties": { "OBJECTID": 15, "ID": 1, "NAME": "Archbishop Carroll High", "ADDRESS": "4300 HAREWOOD ROAD NE", "TELEPHONE": "202-529-0900", "WEB_URL": "https://www.archbishopcarroll.org/", "GIS_ID": "IndSchPt_29", "MAR_ID": 290010, "XCOORD": 399454.23, "YCOORD": 141441.84, "LATITUDE": 38.94086644, "LONGITUDE": -77.00629535, "ZIPCODE": "20017", "CREATOR": null, "CREATED": null, "EDITOR": null, "EDITED": null }, "geometry": { "type": "Point", "coordinates": [ -77.006518215744677, 38.940867200202973 ] } },
{ "type": "Feature", "properties": { "OBJECTID": 16, "ID": 50, "NAME": "Sidwell Friends School", "ADDRESS": "3825 WISCONSIN AVENUE NW", "TELEPHONE": "202-537-8100", "WEB_URL": "https://www.sidwell.edu", "GIS_ID": "IndSchPt_9", "MAR_ID": 293241, "XCOORD": 393586.23, "YCOORD": 141276.61, "LATITUDE": 38.9393551, "LONGITUDE": -77.07398, "ZIPCODE": "20016", "CREATOR": null, "CREATED": null, "EDITOR": null, "EDITED": null }, "geometry": { "type": "Point", "coordinates": [ -77.073987717079561, 38.939372306785117 ] } },
{ "type": "Feature", "properties": { "OBJECTID": 17, "ID": 10, "NAME": "National Child Research Center", "ADDRESS": "3209 HIGHLAND PLACE NW", "TELEPHONE": "202-363-8777", "WEB_URL": "https://www.ncrcpreschool.org/", "GIS_ID": "IndSchPt_50", "MAR_ID": 221029, "XCOORD": 394446.66, "YCOORD": 140891.95, "LATITUDE": 38.93589582, "LONGITUDE": -77.06405221, "ZIPCODE": "20008 ", "CREATOR": null, "CREATED": null, "EDITOR": null, "EDITED": null }, "geometry": { "type": "Point", "coordinates": [ -77.064055857734601, 38.935907021455542 ] } },
{ "type": "Feature", "properties": { "OBJECTID": 18, "ID": 52, "NAME": "Washington International School Tregaron Campus", "ADDRESS": "3100 MACOMB STREET NW", "TELEPHONE": "202-243-1800", "WEB_URL": "https://www.wis.edu", "GIS_ID": "IndSchPt_10", "MAR_ID": 300693, "XCOORD": 394645.2, "YCOORD": 140530.02, "LATITUDE": 38.93263668, "LONGITUDE": -77.06175943, "ZIPCODE": "20008", "CREATOR": null, "CREATED": null, "EDITOR": null, "EDITED": null }, "geometry": { "type": "Point", "coordinates": [ -77.061124226455675, 38.932477616055891 ] } },
{ "type": "Feature", "properties": { "OBJECTID": 19, "ID": 41, "NAME": "Sacred Heart School", "ADDRESS": "1625 PARK ROAD NW", "TELEPHONE": "202-265-4828", "WEB_URL": "https://sacredheartschooldc.org ", "GIS_ID": "IndSchPt_24", "MAR_ID": 284056, "XCOORD": 396737.06, "YCOORD": 140499.52, "LATITUDE": 38.93237219, "LONGITUDE": -77.03763288, "ZIPCODE": "20010", "CREATOR": null, "CREATED": null, "EDITOR": null, "EDITED": null }, "geometry": { "type": "Point", "coordinates": [ -77.037669098070012, 38.932315020346174 ] } },
{ "type": "Feature", "properties": { "OBJECTID": 20, "ID": 31, "NAME": "National Cathedral School", "ADDRESS": "3612 WOODLEY ROAD NW", "TELEPHONE": "202-537-6300", "WEB_URL": "https://www.ncs.cathedral.org", "GIS_ID": "IndSchPt_40", "MAR_ID": 308567, "XCOORD": 393745.33, "YCOORD": 140396.02, "LATITUDE": 38.93142363, "LONGITUDE": -77.07213683000001, "ZIPCODE": "20016", "CREATOR": null, "CREATED": null, "EDITOR": null, "EDITED": null }, "geometry": { "type": "Point", "coordinates": [ -77.072139653642978, 38.931431650865868 ] } },
{ "type": "Feature", "properties": { "OBJECTID": 21, "ID": 12, "NAME": "Annunciation School", "ADDRESS": "3810 MASSACHUSETTS AVENUE NW", "TELEPHONE": "202-362-1408", "WEB_URL": "https://www.annunciationschool.net/ ", "GIS_ID": "IndSchPt_16", "MAR_ID": 263608, "XCOORD": 393426.08, "YCOORD": 140254.79, "LATITUDE": 38.93014905, "LONGITUDE": -77.07581747, "ZIPCODE": "20016", "CREATOR": null, "CREATED": null, "EDITOR": null, "EDITED": null }, "geometry": { "type": "Point", "coordinates": [ -77.07581965174596, 38.930156536991582 ] } },
{ "type": "Feature", "properties": { "OBJECTID": 22, "ID": 13, "NAME": "Beauvoir", "ADDRESS": "3500 WOODLEY ROAD NW", "TELEPHONE": "202-537-6485", "WEB_URL": "https://www.beauvoirschool.org/", "GIS_ID": "IndSchPt_30", "MAR_ID": 300818, "XCOORD": 394115.17, "YCOORD": 140251.87, "LATITUDE": 38.93012763, "LONGITUDE": -77.06787013, "ZIPCODE": "20016", "CREATOR": null, "CREATED": null, "EDITOR": null, "EDITED": null }, "geometry": { "type": "Point", "coordinates": [ -77.06787101142173, 38.930132975108243 ] } },
{ "type": "Feature", "properties": { "OBJECTID": 23, "ID": 42, "NAME": "St. Albans School", "ADDRESS": "Mount St. Alban", "TELEPHONE": "202-537-6435", "WEB_URL": "https://www.stalbansschool.org", "GIS_ID": "IndSchPt_19", "MAR_ID": 302446, "XCOORD": 393770.87, "YCOORD": 140062.49, "LATITUDE": 38.92841927, "LONGITUDE": -77.07183924, "ZIPCODE": "20016", "CREATOR": null, "CREATED": null, "EDITOR": null, "EDITED": null }, "geometry": { "type": "Point", "coordinates": [ -77.071849125707217, 38.92842843106672 ] } },
{ "type": "Feature", "properties": { "OBJECTID": 24, "ID": 30, "NAME": "Maret School", "ADDRESS": "3000 CATHEDRAL AVENUE NW", "TELEPHONE": "202-939-8800", "WEB_URL": "https://www.maret.org", "GIS_ID": "IndSchPt_5", "MAR_ID": 220176, "XCOORD": 394748.26, "YCOORD": 140042.15, "LATITUDE": 38.92824242, "LONGITUDE": -77.06056706, "ZIPCODE": "20008", "CREATOR": null, "CREATED": null, "EDITOR": null, "EDITED": null }, "geometry": { "type": "Point", "coordinates": [ -77.060570869579237, 38.928222269439885 ] } },
{ "type": "Feature", "properties": { "OBJECTID": 25, "ID": 11, "NAME": "Aidan Montessori School", "ADDRESS": "2700 27TH STREET NW", "TELEPHONE": "202-387-2700", "WEB_URL": "https://www.aidanschool.org ", "GIS_ID": "IndSchPt_17", "MAR_ID": 220050, "XCOORD": 395177.92, "YCOORD": 139815.5, "LATITUDE": 38.92620315, "LONGITUDE": -77.0556103, "ZIPCODE": "20008", "CREATOR": null, "CREATED": null, "EDITOR": null, "EDITED": null }, "geometry": { "type": "Point", "coordinates": [ -77.055613600168357, 38.926190529501682 ] } },
{ "type": "Feature", "properties": { "OBJECTID": 26, "ID": 19, "NAME": "The Field School", "ADDRESS": "2301 FOXHALL ROAD NW", "TELEPHONE": "202-295-5800", "WEB_URL": "https://www.fieldschool.org/page", "GIS_ID": "IndSchPt_34", "MAR_ID": 274612, "XCOORD": 392329.86, "YCOORD": 139261.11, "LATITUDE": 38.92118879, "LONGITUDE": -77.08844914, "ZIPCODE": "20007", "CREATOR": null, "CREATED": null, "EDITOR": null, "EDITED": null }, "geometry": { "type": "Point", "coordinates": [ -77.088463329248867, 38.921196603245058 ] } },
{ "type": "Feature", "properties": { "OBJECTID": 27, "ID": 44, "NAME": "St. Augustine School", "ADDRESS": "1421 V STREET NW", "TELEPHONE": "202-667-2608", "WEB_URL": "https://www.staug-dc.org/ ", "GIS_ID": "IndSchPt_20", "MAR_ID": 295123, "XCOORD": 397104.69, "YCOORD": 138942.82, "LATITUDE": 38.91835023, "LONGITUDE": -77.03338628, "ZIPCODE": "20009", "CREATOR": null, "CREATED": null, "EDITOR": null, "EDITED": null }, "geometry": { "type": "Point", "coordinates": [ -77.033319945464157, 38.918388678172889 ] } },
{ "type": "Feature", "properties": { "OBJECTID": 28, "ID": 16, "NAME": "British International School of Washington ", "ADDRESS": "2001 WISCONSIN AVENUE NW", "TELEPHONE": "202-829-3700 ", "WEB_URL": "https://www.nordangliaeducation.com/our-schools/washington", "GIS_ID": "IndSchPt_44", "MAR_ID": 224666, "XCOORD": 394091.84, "YCOORD": 138758.92, "LATITUDE": 38.91667851, "LONGITUDE": -77.06812634000001, "ZIPCODE": "20011 ", "CREATOR": null, "CREATED": null, "EDITOR": null, "EDITED": null }, "geometry": { "type": "Point", "coordinates": [ -77.067692353961007, 38.916880834103289 ] } },
{ "type": "Feature", "properties": { "OBJECTID": 29, "ID": 48, "NAME": "St. Patrick's Episcopal Day School", "ADDRESS": "4700 WHITEHAVEN PARKWAY NW", "TELEPHONE": "202-342-2805", "WEB_URL": "https://www.stpatsdc.org", "GIS_ID": "IndSchPt_28", "MAR_ID": 224448, "XCOORD": 392074.86, "YCOORD": 138695.11, "LATITUDE": 38.91608781, "LONGITUDE": -77.09138317, "ZIPCODE": "20007", "CREATOR": null, "CREATED": null, "EDITOR": null, "EDITED": null }, "geometry": { "type": "Point", "coordinates": [ -77.091362878936351, 38.916095276705803 ] } },
{ "type": "Feature", "properties": { "OBJECTID": 30, "ID": 36, "NAME": "Our Lady of Victory School", "ADDRESS": "4755 WHITEHAVEN PARKWAY NW", "TELEPHONE": "202-337-1421", "WEB_URL": "https://www.olvschooldc.net", "GIS_ID": "IndSchPt_42", "MAR_ID": 301551, "XCOORD": 391807.69, "YCOORD": 138686.13, "LATITUDE": 38.91600447, "LONGITUDE": -77.09446374, "ZIPCODE": "20007", "CREATOR": null, "CREATED": null, "EDITOR": null, "EDITED": null }, "geometry": { "type": "Point", "coordinates": [ -77.094503510388265, 38.915972103145982 ] } },
{ "type": "Feature", "properties": { "OBJECTID": 31, "ID": 28, "NAME": "The Lab School of Washington", "ADDRESS": "4759 RESERVOIR ROAD NW", "TELEPHONE": "202-965-6600", "WEB_URL": "https://www.labschool.org", "GIS_ID": "IndSchPt_38", "MAR_ID": 275591, "XCOORD": 391982.02, "YCOORD": 138626.45, "LATITUDE": 38.91546846, "LONGITUDE": -77.09245288, "ZIPCODE": "20007", "CREATOR": null, "CREATED": null, "EDITOR": null, "EDITED": null }, "geometry": { "type": "Point", "coordinates": [ -77.09249638177765, 38.915465494756866 ] } },
{ "type": "Feature", "properties": { "OBJECTID": 32, "ID": 18, "NAME": "Emerson Preparatory School", "ADDRESS": "1816 12TH STREET NW", "TELEPHONE": "202-785-2877", "WEB_URL": "https://www.emersonprep.org", "GIS_ID": "IndSchPt_33", "MAR_ID": 279410, "XCOORD": 397529.17, "YCOORD": 138562.9, "LATITUDE": 38.91492908, "LONGITUDE": -77.02849017, "ZIPCODE": "20036", "CREATOR": null, "CREATED": null, "EDITOR": null, "EDITED": null }, "geometry": { "type": "Point", "coordinates": [ -77.028492483904486, 38.914936502315157 ] } },
{ "type": "Feature", "properties": { "OBJECTID": 33, "ID": 3, "NAME": "Washington International School Primary Campus", "ADDRESS": "1690 36TH STREET NW", "TELEPHONE": "202-243-1700", "WEB_URL": "https://www.wis.edu", "GIS_ID": "IndSchPt_46", "MAR_ID": 300744, "XCOORD": 393799.71, "YCOORD": 138359.41, "LATITUDE": 38.91307758, "LONGITUDE": -77.07149125, "ZIPCODE": "20007", "CREATOR": null, "CREATED": null, "EDITOR": null, "EDITED": null }, "geometry": { "type": "Point", "coordinates": [ -77.071499005220602, 38.913089290292426 ] } },
{ "type": "Feature", "properties": { "OBJECTID": 34, "ID": 22, "NAME": "Georgetown Visitation Preparatory School", "ADDRESS": "1524 35TH STREET NW", "TELEPHONE": "202-337-3350", "WEB_URL": "https://www.visi.org", "GIS_ID": "IndSchPt_36", "MAR_ID": 301498, "XCOORD": 393980.48, "YCOORD": 137960.13, "LATITUDE": 38.90948199, "LONGITUDE": -77.06940342, "ZIPCODE": "20007", "CREATOR": null, "CREATED": null, "EDITOR": null, "EDITED": null }, "geometry": { "type": "Point", "coordinates": [ -77.069322153182284, 38.90921243762034 ] } },
{ "type": "Feature", "properties": { "OBJECTID": 35, "ID": 21, "NAME": "Georgetown Day School Lower/Middle School", "ADDRESS": "4530 MACARTHUR BOULEVARD NW", "TELEPHONE": "202-295-6200", "WEB_URL": "https://www.gds.org", "GIS_ID": "IndSchPt_18", "MAR_ID": 275307, "XCOORD": 392498.57, "YCOORD": 137771.15, "LATITUDE": 38.90776819, "LONGITUDE": -77.08648736000001, "ZIPCODE": "20007", "CREATOR": null, "CREATED": null, "EDITOR": null, "EDITED": null }, "geometry": { "type": "Point", "coordinates": [ -77.086302791220191, 38.907641269593043 ] } },
{ "type": "Feature", "properties": { "OBJECTID": 36, "ID": 25, "NAME": "Holy Trinity School", "ADDRESS": "1325 36TH STREET NW", "TELEPHONE": "202-337-2339", "WEB_URL": "https://www.htsdc.org/", "GIS_ID": "IndSchPt_3", "MAR_ID": 295119, "XCOORD": 393932.64, "YCOORD": 137733.52, "LATITUDE": 38.90744028, "LONGITUDE": -77.069953, "ZIPCODE": "20007", "CREATOR": null, "CREATED": null, "EDITOR": null, "EDITED": null }, "geometry": { "type": "Point", "coordinates": [ -77.070479996210977, 38.907459476801741 ] } },
{ "type": "Feature", "properties": { "OBJECTID": 37, "ID": 24, "NAME": "Holy Redeemer School", "ADDRESS": "1135 NEW JERSEY AVENUE NW", "TELEPHONE": "202-638-5789", "WEB_URL": "https://www.holyredeemerdc.org/ ", "GIS_ID": "IndSchPt_2", "MAR_ID": 305813, "XCOORD": 398764.37, "YCOORD": 137449.29, "LATITUDE": 38.90489991, "LONGITUDE": -77.01424556000001, "ZIPCODE": "20001", "CREATOR": null, "CREATED": null, "EDITOR": null, "EDITED": null }, "geometry": { "type": "Point", "coordinates": [ -77.014204444163383, 38.904922978292518 ] } },
{ "type": "Feature", "properties": { "OBJECTID": 38, "ID": 23, "NAME": "Gonzaga College High School", "ADDRESS": "19 I STREET NW", "TELEPHONE": "202-336-7100", "WEB_URL": "https://www.gonzaga.org", "GIS_ID": "IndSchPt_37", "MAR_ID": 279445, "XCOORD": 399162.07, "YCOORD": 137078.12, "LATITUDE": 38.90155675, "LONGITUDE": -77.00966003000001, "ZIPCODE": "20001", "CREATOR": null, "CREATED": null, "EDITOR": null, "EDITED": null }, "geometry": { "type": "Point", "coordinates": [ -77.010889043640702, 38.901619817452854 ] } },
{ "type": "Feature", "properties": { "OBJECTID": 39, "ID": 5, "NAME": "The Monroe School", "ADDRESS": "601 50TH STREET NE", "TELEPHONE": "202-399-8353", "WEB_URL": "https://monroeschool.net/m/", "GIS_ID": "IndSchPt_13", "MAR_ID": 289784, "XCOORD": 406151.54, "YCOORD": 136534.58, "LATITUDE": 38.89663922, "LONGITUDE": -76.92908719, "ZIPCODE": "20019", "CREATOR": null, "CREATED": null, "EDITOR": null, "EDITED": null }, "geometry": { "type": "Point", "coordinates": [ -76.929089456009351, 38.896646646818169 ] } },
{ "type": "Feature", "properties": { "OBJECTID": 40, "ID": 33, "NAME": "Nation House School", "ADDRESS": "6101 DIX STREET NE", "TELEPHONE": "202-291-5600", "WEB_URL": "https://www.nationhouse.org ", "GIS_ID": "IndSchPt_6", "MAR_ID": 151064, "XCOORD": 407507.45, "YCOORD": 136274.13, "LATITUDE": 38.89428246, "LONGITUDE": -76.91345959, "ZIPCODE": "20019", "CREATOR": null, "CREATED": null, "EDITOR": null, "EDITED": null }, "geometry": { "type": "Point", "coordinates": [ -76.913461952408568, 38.894289903286641 ] } },
{ "type": "Feature", "properties": { "OBJECTID": 41, "ID": 64, "NAME": "St. Peter's Interparish School", "ADDRESS": "422 3RD STREET SE", "TELEPHONE": "202-544-1618", "WEB_URL": "https://www.stpeterschooldc.org/", "GIS_ID": "IndSchPt_22", "MAR_ID": 25180, "XCOORD": 399845.96, "YCOORD": 135068.13, "LATITUDE": 38.8834504, "LONGITUDE": -77.00177539000001, "ZIPCODE": "20003", "CREATOR": null, "CREATED": null, "EDITOR": null, "EDITED": null }, "geometry": { "type": "Point", "coordinates": [ -77.001565339630972, 38.88347254341231 ] } },
{ "type": "Feature", "properties": { "OBJECTID": 42, "ID": 62, "NAME": "Cornerstone Schools of Washington, D.C., Inc.", "ADDRESS": "3742 ELY PLACE SE", "TELEPHONE": "202-582-8600", "WEB_URL": "https://www.cornerstone-schools.org", "GIS_ID": "IndSchPt_12", "MAR_ID": 310211, "XCOORD": 404525.58, "YCOORD": 135027.13, "LATITUDE": 38.88306942, "LONGITUDE": -76.94784062, "ZIPCODE": "20019", "CREATOR": null, "CREATED": null, "EDITOR": null, "EDITED": null }, "geometry": { "type": "Point", "coordinates": [ -76.947842515224778, 38.883077124570931 ] } },
{ "type": "Feature", "properties": { "OBJECTID": 43, "ID": 54, "NAME": "Capitol Hill Day School", "ADDRESS": "210 SOUTH CAROLINA AVENUE SE", "TELEPHONE": "202-547-2244", "WEB_URL": "https://www.chds.org", "GIS_ID": "IndSchPt_27", "MAR_ID": 51864, "XCOORD": 399723.55, "YCOORD": 134940.65, "LATITUDE": 38.88230198, "LONGITUDE": -77.00318618, "ZIPCODE": "20003", "CREATOR": null, "CREATED": null, "EDITOR": null, "EDITED": null }, "geometry": { "type": "Point", "coordinates": [ -77.003181143252959, 38.882308996230229 ] } },
{ "type": "Feature", "properties": { "OBJECTID": 44, "ID": 63, "NAME": "St. Francis Xavier School", "ADDRESS": "2700 O STREET SE", "TELEPHONE": "202-581-2010", "WEB_URL": "https://www.catholicacademies.org/schools/st-francis-xavier-academy", "GIS_ID": "IndSchPt_26", "MAR_ID": 45401, "XCOORD": 402724.43, "YCOORD": 133929.28, "LATITUDE": 38.87318698, "LONGITUDE": -76.96860405, "ZIPCODE": "20020", "CREATOR": null, "CREATED": null, "EDITOR": null, "EDITED": null }, "geometry": { "type": "Point", "coordinates": [ -76.968596070379107, 38.873149143854 ] } },
{ "type": "Feature", "properties": { "OBJECTID": 45, "ID": 57, "NAME": "Dupont Park Adventist School", "ADDRESS": "3942 ALABAMA AVENUE SE", "TELEPHONE": "202-583-8500", "WEB_URL": "https://dupont22.adventistschoolconnect.org/ ", "GIS_ID": "IndSchPt_11", "MAR_ID": 278452, "XCOORD": 404514.03, "YCOORD": 133516.51, "LATITUDE": 38.86946122, "LONGITUDE": -76.94798366000001, "ZIPCODE": "20020", "CREATOR": null, "CREATED": null, "EDITOR": null, "EDITED": null }, "geometry": { "type": "Point", "coordinates": [ -76.948042755008359, 38.869675490571453 ] } },
{ "type": "Feature", "properties": { "OBJECTID": 46, "ID": 34, "NAME": "Bishop John T. Walker School for Boys", "ADDRESS": "1801 MISSISSIPPI AVENUE SE", "TELEPHONE": "202-678-1515", "WEB_URL": "https://www.bishopwalkerschool.org/", "GIS_ID": "IndSchPt_52", "MAR_ID": 313139, "XCOORD": 402009.94, "YCOORD": 130618.38, "LATITUDE": 38.843363, "LONGITUDE": -76.976847, "ZIPCODE": "20032", "CREATOR": null, "CREATED": null, "EDITOR": null, "EDITED": null }, "geometry": { "type": "Point", "coordinates": [ -76.976849679041095, 38.843370370167065 ] } },
{ "type": "Feature", "properties": { "OBJECTID": 47, "ID": 65, "NAME": "St. Thomas More Catholic School", "ADDRESS": "4265 4TH STREET SE", "TELEPHONE": "202-561-1189", "WEB_URL": "https://stmraiders.org/", "GIS_ID": "IndSchPt_23", "MAR_ID": 303721, "XCOORD": 399983.89, "YCOORD": 128625.32, "LATITUDE": 38.82541082, "LONGITUDE": -77.00018553, "ZIPCODE": "20032", "CREATOR": null, "CREATED": null, "EDITOR": null, "EDITED": null }, "geometry": { "type": "Point", "coordinates": [ -76.999957285593766, 38.825041421242695 ] } },
{ "type": "Feature", "properties": { "OBJECTID": 48, "ID": 20, "NAME": "Georgetown Day School High School", "ADDRESS": "4200 DAVENPORT STREET NW", "TELEPHONE": "202-274-3200", "WEB_URL": "https://www.gds.org", "GIS_ID": "IndSchPt_35", "MAR_ID": 266095, "XCOORD": 392840.26, "YCOORD": 142659.85, "LATITUDE": 38.95180994, "LONGITUDE": -77.08259887, "ZIPCODE": "20016", "CREATOR": null, "CREATED": null, "EDITOR": null, "EDITED": null }, "geometry": { "type": "Point", "coordinates": [ -77.082572694484497, 38.95180765102166 ] } },
{ "type": "Feature", "properties": { "OBJECTID": 49, "ID": 17, "NAME": "Edmund Burke School", "ADDRESS": "4101 CONNECTICUT AVENUE NW", "TELEPHONE": "202-362-8882", "WEB_URL": "https://www.burkeschool.org/page", "GIS_ID": "IndSchPt_32", "MAR_ID": 302397, "XCOORD": 394621.92, "YCOORD": 141600.04, "LATITUDE": 38.9422756, "LONGITUDE": -77.06203631, "ZIPCODE": "20008", "CREATOR": null, "CREATED": null, "EDITOR": null, "EDITED": null }, "geometry": { "type": "Point", "coordinates": [ -77.06142682609358, 38.942353274748029 ] } },
{ "type": "Feature", "properties": { "OBJECTID": 50, "ID": 7, "NAME": "St. Anthony's School", "ADDRESS": "3400 12TH STREET NE", "TELEPHONE": "202-526-4657", "WEB_URL": "https://www.stanthonyschooldc.org/", "GIS_ID": "IndSchPt_15", "MAR_ID": 289591, "XCOORD": 400747.98, "YCOORD": 140441.31, "LATITUDE": 38.93185356, "LONGITUDE": -76.99137329, "ZIPCODE": "20017", "CREATOR": null, "CREATED": null, "EDITOR": null, "EDITED": null }, "geometry": { "type": "Point", "coordinates": [ -76.991377176082636, 38.931861358719196 ] } },
{ "type": "Feature", "properties": { "OBJECTID": 51, "ID": 9, "NAME": "The RIver School", "ADDRESS": "4880 MACARTHUR BOULEVARD NW", "TELEPHONE": "202-337-3554", "WEB_URL": "https://www.riverschool.net", "GIS_ID": "IndSchPt_49", "MAR_ID": 285007, "XCOORD": 391500.34, "YCOORD": 138875.43, "LATITUDE": 38.91770683, "LONGITUDE": -77.09801007, "ZIPCODE": "20007", "CREATOR": null, "CREATED": null, "EDITOR": null, "EDITED": null }, "geometry": { "type": "Point", "coordinates": [ -77.098005316294433, 38.917742005351712 ] } },
{ "type": "Feature", "properties": { "OBJECTID": 52, "ID": 35, "NAME": "Little Folks School", "ADDRESS": "3247 Q STREET NW", "TELEPHONE": "202-333-6571", "WEB_URL": "https://www.littlefolks.org/", "GIS_ID": "IndSchPt_53", "MAR_ID": 305086, "XCOORD": 394301.26, "YCOORD": 138119.52, "LATITUDE": 38.91092, "LONGITUDE": -77.065706, "ZIPCODE": "20007", "CREATOR": null, "CREATED": null, "EDITOR": null, "EDITED": null }, "geometry": { "type": "Point", "coordinates": [ -77.065708449815176, 38.910927417851639 ] } },
{ "type": "Feature", "properties": { "OBJECTID": 53, "ID": 37, "NAME": "The Owl School", "ADDRESS": "1920 G STREET NW", "TELEPHONE": "202-828-1001", "WEB_URL": "https://www.owlschoolchildcaredcmdva.com", "GIS_ID": "IndSchPt_43", "MAR_ID": 293216, "XCOORD": 396123.45, "YCOORD": 136697.6, "LATITUDE": 38.89812074, "LONGITUDE": -77.04468844, "ZIPCODE": "20006", "CREATOR": null, "CREATED": null, "EDITOR": null, "EDITED": null }, "geometry": { "type": "Point", "coordinates": [ -77.044690737572736, 38.898128188870061 ] } },
{ "type": "Feature", "properties": { "OBJECTID": 54, "ID": 2, "NAME": "Washington School for Girls", "ADDRESS": "1901 MISSISSIPPI AVENUE SE", "TELEPHONE": "202-678-1113", "WEB_URL": "https://www.washingtonschoolforgirls.org/", "GIS_ID": "IndSchPt_45", "MAR_ID": 295845, "XCOORD": 402142.37, "YCOORD": 130640.01, "LATITUDE": 38.84355746, "LONGITUDE": -76.97532187, "ZIPCODE": "20020", "CREATOR": null, "CREATED": null, "EDITOR": null, "EDITED": null }, "geometry": { "type": "Point", "coordinates": [ -76.975321286898236, 38.843565594432391 ] } }
]
}
